[
  {
    "id": 1,
    "destination": "رحله متحف الرمال الاسلامى",
    "status": "completed",
    "date": "2025-08-03",
    "day": "الاثنين",
    "time": "10:00 ص",
    "total_students": 35,
    "paid_count": 20,
    "unpaid_count": 15,
    "location": "الغردقة، مصر",
    "students": {
      "paid": [
        { "name": "محمد احمد السيد", "phone": "01026364250" },
        { "name": "علي حسن محمد", "phone": "01026364251" },
        { "name": "مهاب مجدي الدين", "phone": "01026364252" },
        { "name": "فاطمة زكريا سامي", "phone": "01026364253" },
        { "name": "عمرو خالد حسن", "phone": "01026364254" },
        { "name": "هشام عبد الله", "phone": "01026364255" },
        { "name": "هشام عبد الله", "phone": "01026364255" },
        { "name": "هشام عبد الله", "phone": "01026364255" }
      ],
      "unpaid": [
        { "name": "أحمد حسن علي", "phone": "01012345678" },
        { "name": "سارة محمد", "phone": "01098765432" },
        { "name": "يوسف خالد", "phone": "01011223344" },
        { "name": "مريم أحمد", "phone": "01055667788" },
        { "name": "أسماء علي", "phone": "01066778899" }
      ]
    }
  },
  {
    "id": 2,
    "destination": "رحله متحف الرمال الاسلامى",
    "status": "completed",
    "date": "2025-08-03",
    "day": "الاثنين",
    "time": "10:00 ص",
    "total_students": 35,
    "paid_count": 20,
    "unpaid_count": 15,
    "location": "الغردقة، مصر",
    "students": {
      "paid": [
        { "name": "محمد احمد السيد", "phone": "01026364250" },
        { "name": "علي حسن محمد", "phone": "01026364251" },
        { "name": "مهاب مجدي الدين", "phone": "01026364252" },
        { "name": "فاطمة زكريا سامي", "phone": "01026364253" },
        { "name": "عمرو خالد حسن", "phone": "01026364254" },
        { "name": "هشام عبد الله", "phone": "01026364255" },
        { "name": "هشام عبد الله", "phone": "01026364255" },
        { "name": "هشام عبد الله", "phone": "01026364255" }
      ],
      "unpaid": [
        { "name": "أحمد حسن علي", "phone": "01012345678" },
        { "name": "سارة محمد", "phone": "01098765432" },
        { "name": "يوسف خالد", "phone": "01011223344" },
        { "name": "مريم أحمد", "phone": "01055667788" },
        { "name": "أسماء علي", "phone": "01066778899" }
      ]
    }
  },
  {
    "id": 3,
    "destination": "رحله متحف اللوفر",
    "status": "scheduled",
    "date": "2025-09-10",
    "day": "الأربعاء",
    "time": "9:00 ص",
    "total_students": 40,
    "paid_count": 30,
    "unpaid_count": 10,
    "location": "القاهرة، مصر",
    "students": {
      "paid": [
        { "name": "أحمد محمد", "phone": "01099999999" },
        { "name": "منى خالد", "phone": "01088888888" }
      ],
      "unpaid": [
        { "name": "إسلام سامي", "phone": "01077777777" },
        { "name": "هدى أحمد", "phone": "01066666666" }
      ]
    }
  },
  {
    "id": 4,
    "destination": "رحله متحف اللوفر",
    "status": "scheduled",
    "date": "2025-09-10",
    "day": "الأربعاء",
    "time": "9:00 ص",
    "total_students": 40,
    "paid_count": 30,
    "unpaid_count": 10,
    "location": "القاهرة، مصر",
    "students": {
      "paid": [
        { "name": "أحمد محمد", "phone": "01099999999" },
        { "name": "منى خالد", "phone": "01088888888" }
      ],
      "unpaid": [
        { "name": "إسلام سامي", "phone": "01077777777" },
        { "name": "هدى أحمد", "phone": "01066666666" }
      ]
    }
  },
  {
    "id": 5,
    "destination": "رحله متحف اللوفر",
    "status": "canceled",
    "date": "2025-09-10",
    "day": "الأربعاء",
    "time": "9:00 ص",
    "total_students": 40,
    "paid_count": 30,
    "unpaid_count": 10,
    "location": "القاهرة، مصر",
    "students": {
      "paid": [
        { "name": "أحمد محمد", "phone": "01099999999" },
        { "name": "منى خالد", "phone": "01088888888" }
      ],
      "unpaid": [
        { "name": "إسلام سامي", "phone": "01077777777" },
        { "name": "هدى أحمد", "phone": "01066666666" }
      ]
    }
  }
]
